{
    "type": "FeatureCollection",
    "features": [
        {
            "type": "Feature",
            "geometry": {
                "type": "Point",
                "coordinates": [-6.645457, 54.648736]
            },
            "properties": {
                "name": "Littlebridge Farm Fresh Ltd",
                "description": "A local farm favorite known for fresh produce and a friendly atmosphere.",
                "infoUrl": "https://www.weeadventurers.com/post/little-bridge-farm-fresh"
            }
        },
        {
            "type": "Feature",
            "geometry": {
                "type": "Point",
                "coordinates": [-6.673232, 54.762537]
            },
            "properties": {
                "name": "Grangewater open farm",
                "description": "A great open farm experience where kids can get up close with various farm animals.",
                "infoUrl": "https://www.weeadventurers.com/post/grangewater-open-farm"
            }
        },
        {
            "type": "Feature",
            "geometry": {
                "type": "Point",
                "coordinates": [-6.381184, 54.464589]
            },
            "properties": {
                "name": "Tannaghmore Gardens & Animal Farm",
                "description": "Features rare breeds of farm animals, beautiful gardens, and a large playpark.",
                "infoUrl": "https://www.weeadventurers.com/post/tannaghmore-gardens"
            }
        },
        {
            "type": "Feature",
            "geometry": {
                "type": "Point",
                "coordinates": [-7.544125, 54.320321]
            },
            "properties": {
                "name": "Fermanagh Fun Farm",
                "description": "A fantastic day out with animal feeding, indoor play, and tractor rides.",
                "infoUrl": "https://www.weeadventurers.com/fermanagh-animals"
            }
        },
        {
            "type": "Feature",
            "geometry": {
                "type": "Point",
                "coordinates": [-6.236544, 54.110126]
            },
            "properties": {
                "name": "Fort Evergreen Warrenpoint",
                "description": "Combines an animal farm with a brilliant fort-themed play area and petting zoo.",
                "infoUrl": "https://www.weeadventurers.com/post/fort-evergreen"
            }
        },
        {
            "type": "Feature",
            "geometry": {
                "type": "Point",
                "coordinates": [-5.844629, 54.277665]
            },
            "properties": {
                "name": "Mountpanther Farm Park",
                "description": "Features exotic animals, a huge soft play area, and outdoor bouncy pillows.",
                "infoUrl": "https://www.weeadventurers.com/post/mountpanther-farm-park"
            }
        },
        {
            "type": "Feature",
            "geometry": {
                "type": "Point",
                "coordinates": [-5.69619, 54.530286]
            },
            "properties": {
                "name": "WWT Castle Espie",
                "description": "Explore the wetlands, feed the ducks, and enjoy the stunning views of Strangford Lough.",
                "infoUrl": "https://www.weeadventurers.com/post/wwt-castle-espie"
            }
        },
        {
            "type": "Feature",
            "geometry": {
                "type": "Point",
                "coordinates": [-6.462804, 55.02327]
            },
            "properties": {
                "name": "Rosepark Farm",
                "description": "A family-run farm with a great inland beach, petting area, and beautiful walkways.",
                "infoUrl": "https://www.weeadventurers.com/post/rosepark-farm"
            }
        },
        {
            "type": "Feature",
            "geometry": {
                "type": "Point",
                "coordinates": [-5.817242, 54.580075]
            },
            "properties": {
                "name": "Streamvale Farm",
                "description": "A classic dairy farm experience with puppy cuddling, bottle feeding, and barrel rides.",
                "infoUrl": "https://www.weeadventurers.com/post/streamvale-farm"
            }
        },
        {
            "type": "Feature",
            "geometry": {
                "type": "Point",
                "coordinates": [-7.2555822, 54.6839536]
            },
            "properties": {
                "name": "Glenpark Estate",
                "description": "A beautiful estate featuring rare breed animals and a lovely woodland setting.",
                "infoUrl": "https://www.weeadventurers.com/post/glenpark-estate"
            }
        }
    ]
}
