{
    "type": "FeatureCollection",
    "features": [
        {
            "type": "Feature",
            "geometry": { "type": "Point", "coordinates": [-7.325038, 54.995173] },
            "properties": {
                "name": "The Derry Walls",
                "description": "Walk the historic 17th-century walls! A great way to see the city from above with plenty of cannons for the kids to spot.",
                "infoUrl": "https://www.weeadventurers.com/post/the-derry-walls"
            }
        },
        {
            "type": "Feature",
            "geometry": { "type": "Point", "coordinates": [-6.645511, 54.685658] },
            "properties": {
                "name": "National Trust - Springhill",
                "description": "A pretty 17th-century house with a famous costume collection and lovely woodland walks. Keep an eye out for the friendly ghost!",
                "infoUrl": "https://www.weeadventurers.com/post/springhill-national-trust"
            }
        },
        {
            "type": "Feature",
            "geometry": { "type": "Point", "coordinates": [-6.810897, 55.167781] },
            "properties": {
                "name": "Mussenden Temple",
                "description": "Perched right on the cliff edge! Explore the ruins of Downhill House and run through the wide open gardens.",
                "infoUrl": "https://www.weeadventurers.com/post/mussenden-temple-downhill-demesne"
            }
        },
        {
            "type": "Feature",
            "geometry": { "type": "Point", "coordinates": [-6.657701, 54.46483] },
            "properties": {
                "name": "National Trust - The Argory",
                "description": "Atmospheric wooded estate beside the River Blackwater. Features a great adventure playground and a quirky cafe.",
                "infoUrl": "https://www.weeadventurers.com/post/the-argory"
            }
        },
        {
            "type": "Feature",
            "geometry": { "type": "Point", "coordinates": [-7.599556, 54.336938] },
            "properties": {
                "name": "National Trust - Castle Coole",
                "description": "A grand mansion on the edge of Enniskillen. Perfect for a family stroll around the lake and through the wooded trails.",
                "infoUrl": "https://www.weeadventurers.com/post/castle-coole"
            }
        },
        {
            "type": "Feature",
            "geometry": { "type": "Point", "coordinates": [-7.644708, 54.346112] },
            "properties": {
                "name": "Enniskillen Castle",
                "description": "Explore the castle towers and the Inniskillings Museum. Great interactive displays for kids interested in history.",
                "infoUrl": "https://www.weeadventurers.com/post/enniskillen-castle"
            }
        },
        {
            "type": "Feature",
            "geometry": { "type": "Point", "coordinates": [-7.730619, 54.479435] },
            "properties": {
                "name": "Castle Archdale",
                "description": "A lakeside paradise! WWII history meets adventure with forest walks, a butterfly garden, and boat hire.",
                "infoUrl": "https://www.weeadventurers.com/post/castle-archdale"
            }
        },
        {
            "type": "Feature",
            "geometry": { "type": "Point", "coordinates": [-7.725696, 54.260287] },
            "properties": {
                "name": "Florence Court House",
                "description": "Famous for the Florence Court Yew. There's a great walled garden, a sawmill, and miles of forest paths to explore.",
                "infoUrl": "https://www.weeadventurers.com/post/florence-court"
            }
        },
        {
            "type": "Feature",
            "geometry": { "type": "Point", "coordinates": [-5.829533, 54.44769] },
            "properties": {
                "name": "National Trust - Rowallane Garden",
                "description": "A mix of formal and wild gardens. The 'Natural Play' area and hidden trails are brilliant for little explorers.",
                "infoUrl": "https://www.weeadventurers.com/post/rowallane-garden"
            }
        },
        {
            "type": "Feature",
            "geometry": { "type": "Point", "coordinates": [-5.839985, 54.315604] },
            "properties": {
                "name": "Seaforde Gardens & Tropical Butterfly House",
                "description": "Walk through a jungle filled with free-flying butterflies! Also features a maze and a great garden center cafe.",
                "infoUrl": "https://www.weeadventurers.com/post/seaforde-gardens-and-tropical-butterfly-house"
            }
        },
        {
            "type": "Feature",
            "geometry": { "type": "Point", "coordinates": [-5.899637, 54.39284] },
            "properties": {
                "name": "Montalto Estate",
                "description": "A must-visit! Home to an incredible award-winning adventure playground, trails, and a beautiful tea room.",
                "infoUrl": "https://www.weeadventurers.com/post/montalto-estate"
            }
        },
        {
            "type": "Feature",
            "geometry": { "type": "Point", "coordinates": [-5.956166, 54.966165] },
            "properties": {
                "name": "Glenarm Castle",
                "description": "One of NI's oldest estates. The walled garden is stunning, and the Pizza Pavilion is a great family lunch spot.",
                "infoUrl": "https://www.weeadventurers.com/post/glenarm-castle"
            }
        },
        {
            "type": "Feature",
            "geometry": { "type": "Point", "coordinates": [-5.91551, 54.604734] },
            "properties": {
                "name": "W5",
                "description": "Interactive science center with hundreds of hands-on exhibits. A perfect rainy-day destination for all ages.",
                "infoUrl": "https://www.weeadventurers.com/post/w5"
            }
        },
        {
            "type": "Feature",
            "geometry": { "type": "Point", "coordinates": [-7.03693, 54.652139] },
            "properties": {
                "name": "An Creagán",
                "description": "A forest and river walk filled with local history. Great for a quiet family bike ride or a dander through the trees.",
                "infoUrl": "https://www.weeadventurers.com/post/an-creagan"
            }
        },
        {
            "type": "Feature",
            "geometry": { "type": "Point", "coordinates": [-7.255582, 54.682401] },
            "properties": {
                "name": "Glenpark Estate",
                "description": "Beautiful grounds featuring rare-breed animals, a farm shop, and lovely forest paths.",
                "infoUrl": "https://www.weeadventurers.com/post/glenpark-estate"
            }
        }
    ]
}
