{
  "type": "FeatureCollection",
  "features": [
    {
      "type": "Feature",
      "geometry": { "type": "Point", "coordinates": [-6.904974, 54.591547] },
      "properties": {
        "name": "Pomeroy Forest",
        "description": "A magical forest park featuring the 'Renardine' fairy trail and a fantastic wooden play area for children.",
        "infoUrl": "https://www.weeadventurers.com/post/pomeroy-forest"
      }
    },
    {
      "type": "Feature",
      "geometry": { "type": "Point", "coordinates": [-7.30117, 54.605173] },
      "properties": {
        "name": "Grange Park Omagh",
        "description": "A spacious urban park in Omagh with a modern playground and an outdoor gym for parents.",
        "infoUrl": "https://www.weeadventurers.com/post/grange-park"
      }
    },
    {
      "type": "Feature",
      "geometry": { "type": "Point", "coordinates": [-7.246855, 54.683954] },
      "properties": {
        "name": "Gortin Glen Forest Park",
        "description": "A destination park with a massive multi-age playground, deer enclosures, and family mountain bike trails.",
        "infoUrl": "https://www.weeadventurers.com/post/gortin-glen"
      }
    },
    {
      "type": "Feature",
      "geometry": { "type": "Point", "coordinates": [-7.03693, 54.652139] },
      "properties": {
        "name": "An Creagán",
        "description": "Explore the wild bogland with forest trails and a river walk. Great for bikes and buggies.",
        "infoUrl": "https://www.weeadventurers.com/post/an-creag%C3%A0n"
      }
    },
    {
      "type": "Feature",
      "geometry": { "type": "Point", "coordinates": [-7.316009, 54.383629] },
      "properties": {
        "name": "Round Lake",
        "description": "A peaceful lakeside spot in Fivemiletown. Perfect for a walk around the water followed by a play in the park.",
        "infoUrl": "https://www.weeadventurers.com/post/round-lake"
      }
    },
    {
      "type": "Feature",
      "geometry": { "type": "Point", "coordinates": [-6.91155, 54.7226] },
      "properties": {
        "name": "Davagh Road",
        "description": "Home to the Dark Sky Observatory. Features wooded walks and world-class mountain biking trails.",
        "infoUrl": "https://www.weeadventurers.com/post/davagh-forest"
      }
    },
    {
      "type": "Feature",
      "geometry": { "type": "Point", "coordinates": [-6.758135, 54.49031] },
      "properties": {
        "name": "Dungannon Park",
        "description": "A 70-acre park with a massive lake. It offers a great playground, tennis courts, and plenty of space for family picnics.",
        "infoUrl": "https://www.weeadventurers.com/post/dungannon-park"
      }
    },
    {
      "type": "Feature",
      "geometry": { "type": "Point", "coordinates": [-6.818086, 54.64292] },
      "properties": {
        "name": "Drum Manor Forest Park",
        "description": "Famous for its vibrant gardens and manor ruins. The large playground is a hit with kids of all ages.",
        "infoUrl": "https://www.weeadventurers.com/post/drum-manor-forest-park"
      }
    },
    {
      "type": "Feature",
      "geometry": { "type": "Point", "coordinates": [-5.956166, 54.966165] },
      "properties": {
        "name": "Glenarm Castle Gardens",
        "description": "Beautiful walled gardens with plenty of hidden corners for kids to discover. Check out the Pizza Pavilion!",
        "infoUrl": "https://www.weeadventurers.com/post/glenarm-castle"
      }
    },
    {
      "type": "Feature",
      "geometry": { "type": "Point", "coordinates": [-6.659722, 55.208333] },
      "properties": {
        "name": "Ramore Head",
        "description": "Dramatic coastal walks in Portrush. Great for exploring rock pools and watching the waves crash against the cliffs.",
        "infoUrl": "https://www.weeadventurers.com/services-9-1"
      }
    },
    {
      "type": "Feature",
      "geometry": { "type": "Point", "coordinates": [-5.914849, 54.584965] },
      "properties": {
        "name": "Ormeau Park",
        "description": "Belfast's oldest municipal park. Large playgrounds, eco-trails, and wide paths perfect for learning to cycle.",
        "infoUrl": "https://www.weeadventurers.com/services-9-1"
      }
    },
    {
      "type": "Feature",
      "geometry": { "type": "Point", "coordinates": [-5.931886, 54.660637] },
      "properties": {
        "name": "V36 Adventure Play Area",
        "description": "A massive, modern adventure park in Newtownabbey with climbing frames, zip wires, and a skate park.",
        "infoUrl": "https://www.weeadventurers.com/services-9-1"
      }
    },
    {
      "type": "Feature",
      "geometry": { "type": "Point", "coordinates": [-6.040872, 54.51574] },
      "properties": {
        "name": "Wallace Park",
        "description": "The 'Jewel of Lisburn'. Features a fantastic playground, a duck pond, and safe, flat walking paths.",
        "infoUrl": "https://www.weeadventurers.com/services-9-1"
      }
    },
    {
      "type": "Feature",
      "geometry": { "type": "Point", "coordinates": [-5.950204, 54.649745] },
      "properties": {
        "name": "Cave Hill Country Park",
        "description": "Home to Belfast Castle. The playground here is excellent, and the hike to McArt's Fort offers the best view in the city.",
        "infoUrl": "https://www.weeadventurers.com/services-9-1"
      }
    },
    {
      "type": "Feature",
      "geometry": { "type": "Point", "coordinates": [-6.281792, 54.872793] },
      "properties": {
        "name": "People's Park Ballymena",
        "description": "A lovely park in the heart of Ballymena with a lake, large playground, and well-maintained flower gardens.",
        "infoUrl": "https://www.weeadventurers.com/services-9-1"
      }
    },
    {
      "type": "Feature",
      "geometry": { "type": "Point", "coordinates": [-6.239497, 54.715753] },
      "properties": {
        "name": "Antrim Lough Shore Park",
        "description": "Situated on the banks of Lough Neagh. A beautiful spot for a walk, with a great playground and cafe.",
        "infoUrl": "https://www.weeadventurers.com/post/antrim-lough-shore-park"
      }
    },
    {
      "type": "Feature",
      "geometry": { "type": "Point", "coordinates": [-5.834328, 54.59512] },
      "properties": {
        "name": "Mo Mowlam Play Park",
        "description": "Located within the Stormont Estate. This is one of the best inclusive playgrounds in NI, catering to all abilities.",
        "infoUrl": "https://www.weeadventurers.com/services-9-1"
      }
    },
    {
      "type": "Feature",
      "geometry": { "type": "Point", "coordinates": [-5.828179, 54.646343] },
      "properties": {
        "name": "Seapark Bay",
        "description": "Beach meets park! A large grassy area with a seaside playground and views across Belfast Lough.",
        "infoUrl": "https://www.weeadventurers.com/north-down"
      }
    },
    {
      "type": "Feature",
      "geometry": { "type": "Point", "coordinates": [-6.082384, 54.458616] },
      "properties": {
        "name": "Hillsborough Forest Park",
        "description": "Recently upgraded with a fantastic digital sculpture trail and a large, modern lakeside playground.",
        "infoUrl": "https://www.weeadventurers.com/post/hillsborough-forest-park"
      }
    },
    {
      "type": "Feature",
      "geometry": { "type": "Point", "coordinates": [-5.895945, 54.394929] },
      "properties": {
        "name": "Montalto Estate Play Park",
        "description": "A multi-award winning adventure playground designed to look like a treehouse. A must-visit destination.",
        "infoUrl": "https://www.weeadventurers.com/post/montalto-estate"
      }
    },
    {
      "type": "Feature",
      "geometry": { "type": "Point", "coordinates": [-5.69619, 54.530286] },
      "properties": {
        "name": "WWT Castle Espie",
        "description": "Feed the ducks and explore the wetlands. Great nature-based play areas and bird watching for kids.",
        "infoUrl": "https://www.weeadventurers.com/post/castle-espie"
      }
    },
    {
      "type": "Feature",
      "geometry": { "type": "Point", "coordinates": [-6.186412, 54.098559] },
      "properties": {
        "name": "Kilbroney Park",
        "description": "Home to the Narnia Trail! A beautiful park in Rostrevor with mountain views and a great playground.",
        "infoUrl": "https://www.weeadventurers.com/post/kilbroney-park"
      }
    },
    {
      "type": "Feature",
      "geometry": { "type": "Point", "coordinates": [-5.676644, 54.382006] },
      "properties": {
        "name": "Delamont Country Park",
        "description": "Features the longest miniature railway in Ireland and a massive adventure playground with views of the lough.",
        "infoUrl": "https://www.weeadventurers.com/post/delamont-country-park"
      }
    },
    {
      "type": "Feature",
      "geometry": { "type": "Point", "coordinates": [-5.959601, 54.267995] },
      "properties": {
        "name": "Castlewellan Forest Park",
        "description": "Home to the Peace Maze and a brilliant play area. Perfect for family walks around the lake.",
        "infoUrl": "https://www.weeadventurers.com/post/castlewellan-forest-park"
      }
    },
    {
      "type": "Feature",
      "geometry": { "type": "Point", "coordinates": [-5.940279, 54.224536] },
      "properties": {
        "name": "Tollymore Forest Park",
        "description": "Famous for its stepping stones and forest trails. A great place for families to explore the 'real' Narnia.",
        "infoUrl": "https://www.weeadventurers.com/post/tollymore-forest-park"
      }
    },
    {
      "type": "Feature",
      "geometry": { "type": "Point", "coordinates": [-7.72834, 54.477447] },
      "properties": {
        "name": "Castle Archdale",
        "description": "Lakeside trails, WWII history, and a great playground. A Fermanagh favorite for sunny days.",
        "infoUrl": "https://www.weeadventurers.com/post/castle-archdale"
      }
    },
    {
      "type": "Feature",
      "geometry": { "type": "Point", "coordinates": [-7.647984, 54.349254] },
      "properties": {
        "name": "Round 'O' Park",
        "description": "Enniskillen's main riverside park. Duck feeding, boat trips, and a well-equipped playground.",
        "infoUrl": "https://www.weeadventurers.com/fermanagh"
      }
    },
    {
      "type": "Feature",
      "geometry": { "type": "Point", "coordinates": [-6.603196, 54.40831] },
      "properties": {
        "name": "Loughgall Country Park",
        "description": "Set in a rural estate with a large lake, forest walks, and a quiet, safe play area.",
        "infoUrl": "https://www.weeadventurers.com/armagh"
      }
    },
    {
      "type": "Feature",
      "geometry": { "type": "Point", "coordinates": [-6.572518, 54.512877] },
      "properties": {
        "name": "Maghery Country Park",
        "description": "Located on the shores of Lough Neagh. Woodland walks and a pleasant playground in a quiet setting.",
        "infoUrl": "https://www.weeadventurers.com/armagh"
      }
    },
    {
      "type": "Feature",
      "geometry": { "type": "Point", "coordinates": [-6.513612, 54.307076] },
      "properties": {
        "name": "Gosford Forest Park",
        "description": "Incredible 'All Out Play' adventure playground with giant castles and zip lines. Great for older kids too.",
        "infoUrl": "https://www.weeadventurers.com/post/gosford-forest-park"
      }
    },
    {
      "type": "Feature",
      "geometry": { "type": "Point", "coordinates": [-6.615007, 54.483852] },
      "properties": {
        "name": "Peatlands Park",
        "description": "Unique bogland park with a narrow-gauge railway and miles of walking trails through the woods.",
        "infoUrl": "https://www.weeadventurers.com/armagh"
      }
    },
    {
      "type": "Feature",
      "geometry": { "type": "Point", "coordinates": [-6.361535, 54.329764] },
      "properties": {
        "name": "Scarva Park",
        "description": "A lovely village park beside the canal. Famous for its tea rooms and the beautiful towpath walk.",
        "infoUrl": "https://www.weeadventurers.com/armagh"
      }
    },
    {
      "type": "Feature",
      "geometry": { "type": "Point", "coordinates": [-6.429735, 54.427222] },
      "properties": {
        "name": "Edenvilla Park",
        "description": "Home to the Secret Garden and a fantastic bird sanctuary. A quiet, peaceful park with a good playground.",
        "infoUrl": "https://www.weeadventurers.com/armagh"
      }
    },
    {
      "type": "Feature",
      "geometry": { "type": "Point", "coordinates": [-6.385044, 54.495653] },
      "properties": {
        "name": "Oxford Island",
        "description": "Nature reserve on Lough Neagh. Great for bird watching, woodland walks, and a lakeside picnic.",
        "infoUrl": "https://www.weeadventurers.com/armagh"
      }
    },
    {
      "type": "Feature",
      "geometry": { "type": "Point", "coordinates": [-6.408904, 54.116026] },
      "properties": {
        "name": "Slieve Gullion Forest Park",
        "description": "Includes the 'Giant's Lair' adventure walk—a magical trail through the forest for little imaginations.",
        "infoUrl": "https://www.weeadventurers.com/post/slieve-gullion-forest-park"
      }
    },
    {
      "type": "Feature",
      "geometry": { "type": "Point", "coordinates": [-6.326216, 54.464395] },
      "properties": {
        "name": "Lurgan Park",
        "description": "The second largest park in Ireland! Features a huge lake, miles of paths, and a great playground.",
        "infoUrl": "https://www.weeadventurers.com/armagh"
      }
    },
    {
      "type": "Feature",
      "geometry": { "type": "Point", "coordinates": [-6.381184, 54.464589] },
      "properties": {
        "name": "Tannaghmore Gardens",
        "description": "Farm animals, rare breeds, and a massive playground. A brilliant free day out for the whole family.",
        "infoUrl": "https://www.weeadventurers.com/post/tannaghmore-gardens"
      }
    },
    {
      "type": "Feature",
      "geometry": { "type": "Point", "coordinates": [-7.303591, 55.037466] },
      "properties": {
        "name": "Ballyarnett Country Park",
        "description": "A spacious park in Derry with a focus on biodiversity and outdoor family fun.",
        "infoUrl": "https://www.weeadventurers.com/derry-londonderry"
      }
    },
    {
      "type": "Feature",
      "geometry": { "type": "Point", "coordinates": [-6.953394, 55.043498] },
      "properties": {
        "name": "Limavady Play Park",
        "description": "A high-quality, accessible playground in the heart of Limavady designed for all children.",
        "infoUrl": "https://www.weeadventurers.com/derry-londonderry"
      }
    },
    {
      "type": "Feature",
      "geometry": { "type": "Point", "coordinates": [-6.708328, 55.170083] },
      "properties": {
        "name": "Diversity Park",
        "description": "Located at Flowerfield Arts Centre. A fully inclusive play area with equipment for children of all abilities.",
        "infoUrl": "https://www.weeadventurers.com/derry-londonderry"
      }
    },
    {
      "type": "Feature",
      "geometry": { "type": "Point", "coordinates": [-7.152324, 54.907583] },
      "properties": {
        "name": "Claudy Country Park",
        "description": "Lovely riverside walks and forest trails in a quiet setting. Perfect for a family dander.",
        "infoUrl": "https://www.weeadventurers.com/derry-londonderry"
      }
    },
    {
      "type": "Feature",
      "geometry": { "type": "Point", "coordinates": [-7.186962, 54.946376] },
      "properties": {
        "name": "Ness Country Park",
        "description": "Home to the highest waterfall in NI! A stunning wooded park with dramatic walks and bridges.",
        "infoUrl": "https://www.weeadventurers.com/post/ness-country-park"
      }
    },
    {
      "type": "Feature",
      "geometry": { "type": "Point", "coordinates": [-6.528113, 54.709672] },
      "properties": {
        "name": "Ballyronan Marina",
        "description": "A beautiful lough-side setting with a newly refurbished playground and forest 'wood-spirit' walk.",
        "infoUrl": "https://www.weeadventurers.com/post/ballyronan-marina"
      }
    },
    {
      "type": "Feature",
      "geometry": { "type": "Point", "coordinates": [-6.707517, 54.75791] },
      "properties": {
        "name": "Iniscarn Forest",
        "description": "A hidden gem for forest walks and exploring the foothills of the Sperrins.",
        "infoUrl": "https://www.weeadventurers.com/derry-londonderry"
      }
    }
  ]
}
