<?xml version="1.0" encoding="UTF-8"?>
<kml xmlns="http://www.opengis.net/kml/2.2">
  <Document>
    <name>antrim-indoors</name>
    <description/>
    <Style id="icon-1899-0288D1-nodesc-normal">
      <IconStyle>
        <color>ffd18802</color>
        <scale>1</scale>
        <Icon>
          <href>https://www.gstatic.com/mapspro/images/stock/503-wht-blank_maps.png</href>
        </Icon>
        <hotSpot x="32" xunits="pixels" y="64" yunits="insetPixels"/>
      </IconStyle>
      <LabelStyle>
        <scale>0</scale>
      </LabelStyle>
      <BalloonStyle>
        <text><![CDATA[<h3>$[name]</h3>]]></text>
      </BalloonStyle>
    </Style>
    <Style id="icon-1899-0288D1-nodesc-highlight">
      <IconStyle>
        <color>ffd18802</color>
        <scale>1</scale>
        <Icon>
          <href>https://www.gstatic.com/mapspro/images/stock/503-wht-blank_maps.png</href>
        </Icon>
        <hotSpot x="32" xunits="pixels" y="64" yunits="insetPixels"/>
      </IconStyle>
      <LabelStyle>
        <scale>1</scale>
      </LabelStyle>
      <BalloonStyle>
        <text><![CDATA[<h3>$[name]</h3>]]></text>
      </BalloonStyle>
    </Style>
    <StyleMap id="icon-1899-0288D1-nodesc">
      <Pair>
        <key>normal</key>
        <styleUrl>#icon-1899-0288D1-nodesc-normal</styleUrl>
      </Pair>
      <Pair>
        <key>highlight</key>
        <styleUrl>#icon-1899-0288D1-nodesc-highlight</styleUrl>
      </Pair>
    </StyleMap>
    <Folder>
      <name>Untitled layer</name>
      <Placemark>
        <name>Mini Minds Play Cafe</name>
        <styleUrl>#icon-1899-0288D1-nodesc</styleUrl>
        <Point>
          <coordinates>
            -5.9991068,54.7508522,0
          </coordinates>
        </Point>
      </Placemark>
      <Placemark>
        <name>High Rise - Family Adventure Centre Lisburn</name>
        <styleUrl>#icon-1899-0288D1-nodesc</styleUrl>
        <Point>
          <coordinates>
            -6.0409336,54.5002315,0
          </coordinates>
        </Point>
      </Placemark>
      <Placemark>
        <name><![CDATA[Little Izzie's Play Cafe]]></name>
        <styleUrl>#icon-1899-0288D1-nodesc</styleUrl>
        <Point>
          <coordinates>
            -6.3203393,54.7489403,0
          </coordinates>
        </Point>
      </Placemark>
      <Placemark>
        <name>Nature and Nurture</name>
        <styleUrl>#icon-1899-0288D1-nodesc</styleUrl>
        <Point>
          <coordinates>
            -6.0467796,54.5099041,0
          </coordinates>
        </Point>
      </Placemark>
      <Placemark>
        <name>Andersonstown Leisure Centre</name>
        <styleUrl>#icon-1899-0288D1-nodesc</styleUrl>
        <Point>
          <coordinates>
            -5.9873267,54.5733828,0
          </coordinates>
        </Point>
      </Placemark>
      <Placemark>
        <name>Little Play Studio</name>
        <styleUrl>#icon-1899-0288D1-nodesc</styleUrl>
        <Point>
          <coordinates>
            -5.949787,54.6654171,0
          </coordinates>
        </Point>
      </Placemark>
      <Placemark>
        <name>Roar and Explore</name>
        <styleUrl>#icon-1899-0288D1-nodesc</styleUrl>
        <Point>
          <coordinates>
            -6.0208075,54.5607987,0
          </coordinates>
        </Point>
      </Placemark>
      <Placemark>
        <name>W5</name>
        <styleUrl>#icon-1899-0288D1-nodesc</styleUrl>
        <Point>
          <coordinates>
            -5.9155104,54.6047336,0
          </coordinates>
        </Point>
      </Placemark>
      <Placemark>
        <name>Dobbies Garden Centre Lisburn</name>
        <styleUrl>#icon-1899-0288D1-nodesc</styleUrl>
        <Point>
          <coordinates>
            -6.02908,54.503598,0
          </coordinates>
        </Point>
      </Placemark>
      <Placemark>
        <name>Honeybees Playtown</name>
        <styleUrl>#icon-1899-0288D1-nodesc</styleUrl>
        <Point>
          <coordinates>
            -6.2568265,54.8508441,0
          </coordinates>
        </Point>
      </Placemark>
      <Placemark>
        <name>The Wee Village</name>
        <styleUrl>#icon-1899-0288D1-nodesc</styleUrl>
        <Point>
          <coordinates>
            -6.0689153,54.7406616,0
          </coordinates>
        </Point>
      </Placemark>
    </Folder>
  </Document>
</kml>
