{
  "type": "FeatureCollection",
  "features": [
    {
      "type": "Feature",
      "geometry": { "type": "Point", "coordinates": [-7.3035911, 55.0374665] },
      "properties": {
        "name": "Ballyarnett Country Park",
        "description": "A sprawling green space with a great playground and historic features. Perfect for a family walk or a picnic on a sunny day.",
        "infoUrl": ""
      }
    },
    {
      "type": "Feature",
      "geometry": { "type": "Point", "coordinates": [-6.9533941, 55.0434975] },
      "properties": {
        "name": "Limavady Accessible Play Park",
        "description": "A fantastic, modern, and fully inclusive playground designed so that children of all abilities can play together.",
        "infoUrl": ""
      }
    },
    {
      "type": "Feature",
      "geometry": { "type": "Point", "coordinates": [-6.7083275, 55.1700834] },
      "properties": {
        "name": "Diversity Park",
        "description": "Located at Flowerfield Arts Centre, this is a brilliant inclusive play area with equipment for all ages and abilities.",
        "infoUrl": ""
      }
    },
    {
      "type": "Feature",
      "geometry": { "type": "Point", "coordinates": [-7.1523236, 54.9075828] },
      "properties": {
        "name": "Claudy Country Park",
        "description": "A peaceful spot with lovely riverside walks and a woodland trail that kids will love exploring.",
        "infoUrl": ""
      }
    },
    {
      "type": "Feature",
      "geometry": { "type": "Point", "coordinates": [-7.1869617, 54.9463757] },
      "properties": {
        "name": "Ness Country Park",
        "description": "Home to the highest waterfall in Northern Ireland! It offers dramatic woodland walks and plenty of steps to tire out little legs.",
        "infoUrl": ""
      }
    },
    {
      "type": "Feature",
      "geometry": { "type": "Point", "coordinates": [-6.5281126, 54.7096718] },
      "properties": {
        "name": "Ballyronan Marina",
        "description": "A beautiful setting on the shores of Lough Neagh with a great playground, forest trail, and picnic areas.",
        "infoUrl": ""
      }
    },
    {
      "type": "Feature",
      "geometry": { "type": "Point", "coordinates": [-6.7075174, 54.7579105] },
      "properties": {
        "name": "Iniscarn Forest & Park",
        "description": "A hidden gem for forest walks and getting back to nature. Great for older kids who love to explore and build dens.",
        "infoUrl": ""
      }
    }
  ]
}
